[[36.1691042, -115.1432334], {"name": "Ogden Mart", "address": "823 E Ogden Ave", "city": "Las Vegas", "state": "NV", "latitude": 36.1687145, "longitude": -115.1355313, "stars": 4.5, "categories": "American (Traditional), Food, Restaurants, Convenience Stores", "whether_Food": 1, "label": 8}, {"name": "Taqueria La Herradura", "address": "1436 E Charleston Blvd", "city": "Las Vegas", "state": "NV", "latitude": 36.1586404699, "longitude": -115.134254913, "stars": 5.0, "categories": "Mexican, Restaurants", "whether_Food": 1, "label": 8}, {"name": "VegeNation", "address": "616 Carson Ave, Ste 120", "city": "Las Vegas", "state": "NV", "latitude": 36.1672853944, "longitude": -115.139310447, "stars": 4.5, "categories": "Vegan, Wine Bars, Waffles, Vegetarian, Live/Raw Food, Sandwiches, Restaurants, Bars, Nightlife", "whether_Food": 1, "label": 8}, {"name": "Happytizers & BBQ", "address": "1013 Ironwood Dr", "city": "Las Vegas", "state": "NV", "latitude": 36.1719093323, "longitude": -115.139968872, "stars": 5.0, "categories": "Food, Food Trucks", "whether_Food": 1, "label": 8}, {"name": "Great Vegas Festival of Beer", "address": "207 W Symphony Park, World Market Pavillions", "city": "Las Vegas", "state": "NV", "latitude": 36.171450716, "longitude": -115.153514783, "stars": 4.0, "categories": "Food, Beer, Wine & Spirits, Festivals, Arts & Entertainment", "whether_Food": 1, "label": 8}, {"name": "Pos Paque Takos", "address": "1468 E Charleston Blvd", "city": "Las Vegas", "state": "NV", "latitude": 36.158595022, "longitude": -115.133052841, "stars": 5.0, "categories": "Food, Restaurants, Food Trucks, Mexican", "whether_Food": 1, "label": 8}, {"name": "Oso Ono Shave Ice", "address": "", "city": "Las Vegas", "state": "NV", "latitude": 36.1670593, "longitude": -115.1355545, "stars": 4.5, "categories": "Food, Food Trucks, Shaved Ice", "whether_Food": 1, "label": 8}, {"name": "Pizza Rock", "address": "201 N 3rd St", "city": "Las Vegas", "state": "NV", "latitude": 36.1716181087, "longitude": -115.142267074, "stars": 4.0, "categories": "Restaurants, Pizza", "whether_Food": 1, "label": 8}, {"name": "ABC Stores", "address": "23 Fremont St", "city": "Las Vegas", "state": "NV", "latitude": 36.1711568, "longitude": -115.1457154, "stars": 4.0, "categories": "Jewelry, Food, Beer, Wine & Spirits, Convenience Stores, Specialty Food, Shopping, Flowers & Gifts, Ethnic Food, Souvenir Shops", "whether_Food": 1, "label": 8}, {"name": "Anthony's New York Pizza & Deli", "address": "321 S Casino Ctr Blvd, Ste 125", "city": "Las Vegas", "state": "NV", "latitude": 36.1673732, "longitude": -115.1458073, "stars": 4.0, "categories": "Food, Delis, Pizza, Restaurants", "whether_Food": 1, "label": 8}, {"name": "O Face Doughnuts", "address": "124 S 6th St, Ste 140", "city": "Las Vegas", "state": "NV", "latitude": 36.1678503871, "longitude": -115.140552831, "stars": 4.0, "categories": "Donuts, Food, Coffee & Tea, Bakeries", "whether_Food": 1, "label": 8}, {"name": "Taqueria El Buen Pastor", "address": "530 N Las Vegas Blvd", "city": "Las Vegas", "state": "NV", "latitude": 36.1745608, "longitude": -115.137042, "stars": 4.5, "categories": "Restaurants, Food, Mexican, Street Vendors, Food Trucks", "whether_Food": 1, "label": 8}, {"name": "Sloppi Jo's Roving Eatery", "address": "", "city": "Las Vegas", "state": "NV", "latitude": 36.175, "longitude": -115.136389, "stars": 4.0, "categories": "Food Stands, Restaurants, Mexican", "whether_Food": 1, "label": 8}, {"name": "Eclipse Theaters", "address": "814 S 3rd St", "city": "Las Vegas", "state": "NV", "latitude": 36.1620239723, "longitude": -115.148427306, "stars": 4.0, "categories": "Nightlife, Arts & Entertainment, Cocktail Bars, Cinema, Dinner Theater, American (New), Bars, Restaurants", "whether_Food": 1, "label": 8}, {"name": "Get A Haircut", "address": "353 E Bonneville Ave, Ste 181", "city": "Las Vegas", "state": "NV", "latitude": 36.1635873381, "longitude": -115.146063901, "stars": 5.0, "categories": "Men's Hair Salons, Hair Salons, Barbers, Beauty & Spas", "whether_Food": 1, "label": 8}, {"name": "Stoned N Baked", "address": "707 Fremont St, Ste 2310, Container Park", "city": "Las Vegas", "state": "NV", "latitude": 36.1679797, "longitude": -115.1379889, "stars": 4.0, "categories": "Restaurants, Desserts, Pizza, Food", "whether_Food": 1, "label": 8}, {"name": "Sin City Sandwich", "address": "375 Lewis Ave", "city": "Las Vegas", "state": "NV", "latitude": 36.1665965, "longitude": -115.1442241, "stars": 4.5, "categories": "Caterers, Sandwiches, Event Planning & Services, Food, Restaurants, Coffee & Tea", "whether_Food": 1, "label": 8}, {"name": "Oddfellows", "address": "150 Las Vegas Blvd N, Ste 190", "city": "Las Vegas", "state": "NV", "latitude": 36.1700878, "longitude": -115.1396153, "stars": 4.5, "categories": "Lounges, Bars, Nightlife, Dive Bars, Dance Clubs, Karaoke", "whether_Food": 1, "label": 8}, {"name": "Nacho Daddy Downtown", "address": "113 N 4th St", "city": "Las Vegas", "state": "NV", "latitude": 36.1703072215, "longitude": -115.141611308, "stars": 4.0, "categories": "Breakfast & Brunch, Restaurants, Mexican, American (New), Tex-Mex", "whether_Food": 1, "label": 8}, {"name": "Eat.", "address": "707 Carson Ave", "city": "Las Vegas", "state": "NV", "latitude": 36.166723, "longitude": -115.13894, "stars": 4.0, "categories": "American (New), Breakfast & Brunch, Restaurants, Sandwiches", "whether_Food": 1, "label": 8}, {"name": "Operation Donuts", "address": "850 N Las Vegas Blvd", "city": "Las Vegas", "state": "NV", "latitude": 36.1796743836, "longitude": -115.131049566, "stars": 5.0, "categories": "Restaurants, Food Stands, Event Planning & Services, Food, Caterers, Donuts", "whether_Food": 1, "label": 8}, {"name": "Vato Cigars", "address": "128 Fremont St", "city": "Las Vegas", "state": "NV", "latitude": 36.1716327, "longitude": -115.1442634, "stars": 4.5, "categories": "Tobacco Shops, Bars, Shopping, Lounges, Nightlife", "whether_Food": 1, "label": 8}, {"name": "Rachel's Kitchen", "address": "150 Las Vegas Blvd N, Ste 160", "city": "Las Vegas", "state": "NV", "latitude": 36.1699021, "longitude": -115.1395318, "stars": 4.0, "categories": "Diners, Sandwiches, American (New), Breakfast & Brunch, Restaurants, Food, Juice Bars & Smoothies", "whether_Food": 1, "label": 8}, {"name": "Roberta's Steakhouse", "address": "600 Fremont Street", "city": "Las Vegas", "state": "NV", "latitude": 36.169089, "longitude": -115.138595, "stars": 4.5, "categories": "Restaurants, Steakhouses", "whether_Food": 1, "label": 8}, {"name": "Eureka!", "address": "520 E Fremont St", "city": "Las Vegas", "state": "NV", "latitude": 36.169255, "longitude": -115.139524, "stars": 4.5, "categories": "Cocktail Bars, Bars, American (Traditional), Restaurants, Nightlife, Breakfast & Brunch", "whether_Food": 1, "label": 8}, {"name": "Wayfarer Bar", "address": "107 Las Vegas Blvd S", "city": "Las Vegas", "state": "NV", "latitude": 36.1689055, "longitude": -115.1405592, "stars": 4.5, "categories": "Lounges, Bars, Nightlife, Cocktail Bars", "whether_Food": 1, "label": 8}, {"name": "A Cut Above the Rest", "address": "616 E Carson Ave", "city": "Las Vegas", "state": "NV", "latitude": 36.1674011, "longitude": -115.1394534, "stars": 4.5, "categories": "Barbers, Beauty & Spas", "whether_Food": 1, "label": 8}, {"name": "Fremont Mini Mart", "address": "1404 Fremont St", "city": "Las Vegas", "state": "NV", "latitude": 36.1645106, "longitude": -115.1304124, "stars": 4.0, "categories": "Convenience Stores, Food", "whether_Food": 1, "label": 8}, {"name": "Artifice", "address": "1025 1st St, Ste A", "city": "Las Vegas", "state": "NV", "latitude": 36.1595574262, "longitude": -115.152307528, "stars": 4.0, "categories": "Lounges, Bars, Nightlife, Music Venues, Arts & Entertainment", "whether_Food": 1, "label": 8}, {"name": "The Longbar", "address": "301 Fremont St", "city": "Las Vegas", "state": "NV", "latitude": 36.1693924, "longitude": -115.1430834, "stars": 4.5, "categories": "Bars, Nightlife", "whether_Food": 1, "label": 8}, {"name": "Greens and Proteins", "address": "353 E Bonneville Ave, Ste 191", "city": "Las Vegas", "state": "NV", "latitude": 36.1638725665, "longitude": -115.145877093, "stars": 4.0, "categories": "Restaurants, Juice Bars & Smoothies, Sandwiches, Burgers, Food", "whether_Food": 1, "label": 8}, {"name": "Wish Vegas", "address": "", "city": "Las Vegas", "state": "NV", "latitude": 36.175, "longitude": -115.136389, "stars": 4.5, "categories": "Bars, Music Venues, Yelp Events, Lounges, Nightlife, Dance Clubs, Arts & Entertainment, Local Flavor", "whether_Food": 1, "label": 8}, {"name": "Tenaya Creek Brewery", "address": "831 W Bonanza Rd", "city": "Las Vegas", "state": "NV", "latitude": 36.176731, "longitude": -115.153202, "stars": 4.5, "categories": "Food, Beer Gardens, Nightlife, Breweries", "whether_Food": 1, "label": 8}, {"name": "Mob Bar", "address": "206 N 3rd St", "city": "Las Vegas", "state": "NV", "latitude": 36.1721441559, "longitude": -115.141413094, "stars": 4.0, "categories": "Restaurants, Event Planning & Services, Nightlife, Bars, Italian, Venues & Event Spaces, Lounges", "whether_Food": 1, "label": 8}, {"name": "JinJu Chocolates", "address": "707 Fremont St, Ste 2280", "city": "Las Vegas", "state": "NV", "latitude": 36.167526, "longitude": -115.138435, "stars": 4.5, "categories": "Chocolatiers & Shops, Specialty Food, Food", "whether_Food": 1, "label": 8}, {"name": "Chart House", "address": "129 E Fremont St", "city": "Las Vegas", "state": "NV", "latitude": 36.1700962, "longitude": -115.1449611, "stars": 4.0, "categories": "American (Traditional), Steakhouses, Seafood, Restaurants, Event Planning & Services, Venues & Event Spaces", "whether_Food": 1, "label": 8}, {"name": "Le Thai", "address": "523 Fremont St", "city": "Las Vegas", "state": "NV", "latitude": 36.1688018067, "longitude": -115.139880089, "stars": 4.0, "categories": "Beer Gardens, Nightlife, Thai, Restaurants", "whether_Food": 1, "label": 8}, {"name": "Vegas 808", "address": "12 E Ogden Ave", "city": "Las Vegas", "state": "NV", "latitude": 36.1730572, "longitude": -115.1450046, "stars": 4.0, "categories": "Food, Specialty Food, Convenience Stores, Ethnic Food", "whether_Food": 1, "label": 8}, {"name": "El Sombrero Mexican Bistro", "address": "807 S Main St", "city": "Las Vegas", "state": "NV", "latitude": 36.1627231, "longitude": -115.1512318, "stars": 4.5, "categories": "Nightlife, Bars, Mexican, Restaurants", "whether_Food": 1, "label": 8}, {"name": "Chinos Locos", "address": "321 S Casino Center Blvd, Ste 130", "city": "Las Vegas", "state": "NV", "latitude": 36.1673732, "longitude": -115.1458073, "stars": 4.0, "categories": "Asian Fusion, Restaurants, Mexican, Event Planning & Services, Venues & Event Spaces, Chinese, Japanese", "whether_Food": 1, "label": 8}, {"name": "Second Street Grill", "address": "200 Fremont St", "city": "Las Vegas", "state": "NV", "latitude": 36.1709271, "longitude": -115.1431516, "stars": 4.0, "categories": "Restaurants, American (Traditional), Steakhouses, American (New)", "whether_Food": 1, "label": 8}, {"name": "Little Rainbow Caf\u00e9", "address": "401 S Maryland Pkwy", "city": "Las Vegas", "state": "NV", "latitude": 36.1619872, "longitude": -115.1347303, "stars": 4.5, "categories": "Food, Salad, Juice Bars & Smoothies, Restaurants, Cafes", "whether_Food": 1, "label": 8}, {"name": "Laos Market", "address": "629 N Las Vegas Blvd", "city": "Las Vegas", "state": "NV", "latitude": 36.1761306, "longitude": -115.1369366, "stars": 4.5, "categories": "Food, International Grocery, Ethnic Food, Specialty Food, Imported Food", "whether_Food": 1, "label": 8}, {"name": "Sidebar", "address": "201 N 3rd St, Ste 120", "city": "Las Vegas", "state": "NV", "latitude": 36.1718195, "longitude": -115.1423041, "stars": 5.0, "categories": "Nightlife, Wine Bars, Lounges, Beer Bar, Bars", "whether_Food": 1, "label": 8}, {"name": "Pick Your Poison Bake Shop", "address": "", "city": "Las Vegas", "state": "NV", "latitude": 36.175, "longitude": -115.136389, "stars": 4.5, "categories": "Bakeries, Food", "whether_Food": 1, "label": 8}, {"name": "Triple George Grill", "address": "201 N 3rd St, Ste 120", "city": "Las Vegas", "state": "NV", "latitude": 36.1718195, "longitude": -115.1423178, "stars": 4.0, "categories": "Steakhouses, American (New), Seafood, Restaurants", "whether_Food": 1, "label": 8}, {"name": "Danna's Caribbean Grill", "address": "321 S Casino Center Blvd, Ste 130", "city": "Las Vegas", "state": "NV", "latitude": 36.1673841, "longitude": -115.1458384, "stars": 4.5, "categories": "Restaurants, Asian Fusion, Latin American, Cuban, Caribbean", "whether_Food": 1, "label": 8}, {"name": "Oscar's Steakhouse", "address": "Plaza Hotel & Casino, 1 Main St", "city": "Las Vegas", "state": "NV", "latitude": 36.1718351907, "longitude": -115.14659958, "stars": 4.0, "categories": "Restaurants, Cocktail Bars, Steakhouses, Nightlife, Bars", "whether_Food": 1, "label": 8}, {"name": "Evel Pie", "address": "508 Fremont St", "city": "Las Vegas", "state": "NV", "latitude": 36.1692398, "longitude": -115.1400789, "stars": 4.5, "categories": "Pizza, Nightlife, Italian, Bars, Restaurants", "whether_Food": 1, "label": 8}, {"name": "Donut Bar", "address": "124 S 6th St, Ste 140", "city": "Las Vegas", "state": "NV", "latitude": 36.167814, "longitude": -115.140447, "stars": 4.5, "categories": "Breakfast & Brunch, Coffee & Tea, Restaurants, Donuts, Food", "whether_Food": 1, "label": 8}, {"name": "The Lady Silvia", "address": "900 Las Vegas Blvd S, Ste 140", "city": "Las Vegas", "state": "NV", "latitude": 36.159966141, "longitude": -115.146868899, "stars": 4.0, "categories": "Comedy Clubs, Bars, Music Venues, Lounges, Cocktail Bars, Arts & Entertainment, Nightlife", "whether_Food": 1, "label": 8}, {"name": "Beer Garden", "address": "1 S Main St", "city": "Las Vegas", "state": "NV", "latitude": 36.1720776, "longitude": -115.1468298, "stars": 4.0, "categories": "Pubs, Pizza, Beer, Wine & Spirits, Restaurants, Nightlife, Food, Bars, Specialty Food", "whether_Food": 1, "label": 8}, {"name": "Smooth Eats", "address": "124 S 6th St, Ste 160", "city": "Las Vegas", "state": "NV", "latitude": 36.167893793, "longitude": -115.140238461, "stars": 5.0, "categories": "Juice Bars & Smoothies, Food, Sandwiches, Comfort Food, Restaurants, Vegetarian, Health Markets, Specialty Food", "whether_Food": 1, "label": 8}, {"name": "Aloha Specialties", "address": "12 E Ogden Ave", "city": "Las Vegas", "state": "NV", "latitude": 36.1731486967, "longitude": -115.144943266, "stars": 4.0, "categories": "Hawaiian, Asian Fusion, Restaurants, Japanese, Filipino", "whether_Food": 1, "label": 8}, {"name": "The Smashed Pig Gastropub", "address": "509 Fremont St", "city": "Las Vegas", "state": "NV", "latitude": 36.16881, "longitude": -115.140343, "stars": 4.5, "categories": "British, Bars, Gastropubs, Pubs, Nightlife, Restaurants", "whether_Food": 1, "label": 8}, {"name": "Redwood Steakhouse", "address": "12 E Ogden Ave", "city": "Las Vegas", "state": "NV", "latitude": 36.1730819, "longitude": -115.1449056, "stars": 4.5, "categories": "Steakhouses, Salad, Soup, Restaurants", "whether_Food": 1, "label": 8}, {"name": "It's All Good BBQ & More", "address": "321 S Casino Center Blvd, Ste 130", "city": "Las Vegas", "state": "NV", "latitude": 36.1671790283, "longitude": -115.145942329, "stars": 5.0, "categories": "Barbeque, Fast Food, Restaurants", "whether_Food": 1, "label": 8}, {"name": "Pawn Donut and Coffee", "address": "725 S Las Vegas Blvd", "city": "Las Vegas", "state": "NV", "latitude": 36.161205, "longitude": -115.145457, "stars": 4.0, "categories": "Coffee & Tea, Restaurants, Donuts, Breakfast & Brunch, Food", "whether_Food": 1, "label": 8}, {"name": "Rachel's Kitchen", "address": "888 W Bonneville Ave", "city": "Las Vegas", "state": "NV", "latitude": 36.167252, "longitude": -115.154643, "stars": 5.0, "categories": "Juice Bars & Smoothies, Food, Restaurants, American (New), Cafes, Sandwiches", "whether_Food": 1, "label": 8}, {"name": "Bronze Cafe at The Market", "address": "611 Fremont St", "city": "Las Vegas", "state": "NV", "latitude": 36.1682699, "longitude": -115.1391277, "stars": 4.5, "categories": "Cafes, Grocery, Restaurants, Bagels, Sandwiches, Vegan, Food, Juice Bars & Smoothies, Salad", "whether_Food": 1, "label": 8}, {"name": "Street Dogs", "address": "", "city": "Las Vegas", "state": "NV", "latitude": 36.169478833, "longitude": -115.141004643, "stars": 4.5, "categories": "Food, Food Trucks, Venezuelan, Restaurants, Latin American", "whether_Food": 1, "label": 8}, {"name": "Le Pho Vietnamese Kitchen", "address": "353 Bonneville Ave, Ste 115", "city": "Las Vegas", "state": "NV", "latitude": 36.164213, "longitude": -115.14664, "stars": 4.0, "categories": "Bars, Nightlife, Food, Restaurants, Vietnamese, Asian Fusion", "whether_Food": 1, "label": 8}, {"name": "Flowrider Truck", "address": "", "city": "Las Vegas", "state": "NV", "latitude": 36.1699412, "longitude": -115.1398296, "stars": 4.0, "categories": "Food Stands, Restaurants", "whether_Food": 1, "label": 8}, {"name": "Rocky Mountain Chocolate Factory", "address": "220 E Fremont St", "city": "Las Vegas", "state": "NV", "latitude": 36.1692552, "longitude": -115.1407197, "stars": 4.0, "categories": "Chocolatiers & Shops, Specialty Food, Food", "whether_Food": 1, "label": 8}, {"name": "Millennium Fandom Bar", "address": "900 S Las Vegas Blvd, Ste 140", "city": "Las Vegas", "state": "NV", "latitude": 36.159942, "longitude": -115.147445, "stars": 5.0, "categories": "Arts & Entertainment, Arts & Crafts, Shopping, Pubs, Nightlife, Lounges, Costumes, Bars", "whether_Food": 1, "label": 8}, {"name": "Flippin' Good Chicken, Burgers, Beer", "address": "505 E Fremont St", "city": "Las Vegas", "state": "NV", "latitude": 36.1688226288, "longitude": -115.140234, "stars": 4.0, "categories": "Burgers, Restaurants, Desserts, Food, Comfort Food, Local Flavor", "whether_Food": 1, "label": 8}, {"name": "Glutton", "address": "616 E Carson Ave, Ste 110", "city": "Las Vegas", "state": "NV", "latitude": 36.167322389, "longitude": -115.139220969, "stars": 4.5, "categories": "Sandwiches, Salad, American (New), Restaurants", "whether_Food": 1, "label": 8}, {"name": "Alibi Las Vegas", "address": "707 Fremont St", "city": "Las Vegas", "state": "NV", "latitude": 36.1675431, "longitude": -115.1384234, "stars": 4.5, "categories": "Performing Arts, Tours, Hotels & Travel, Arts & Entertainment, Walking Tours, Active Life, Scavenger Hunts, Food Tours", "whether_Food": 1, "label": 8}, {"name": "Sweet Strawberry Cake", "address": "1458 E Charleston Blvd", "city": "Las Vegas", "state": "NV", "latitude": 36.1588515, "longitude": -115.1332858, "stars": 4.5, "categories": "Cupcakes, Bakeries, Desserts, Food", "whether_Food": 1, "label": 8}, {"name": "The Reset Project", "address": "520 Fremont St", "city": "Las Vegas", "state": "NV", "latitude": 36.159951, "longitude": -115.147464, "stars": 5.0, "categories": "Meditation Centers, Restaurants, Active Life, Vegan, Fitness & Instruction, Yoga, Party & Event Planning, Event Planning & Services", "whether_Food": 1, "label": 8}, {"name": "The Beat Coffeehouse & Records", "address": "520 Fremont St", "city": "Las Vegas", "state": "NV", "latitude": 36.1691083, "longitude": -115.1395836, "stars": 4.0, "categories": "Sandwiches, Nightlife, Music Venues, Pubs, Arts & Entertainment, Restaurants, Food, Coffee & Tea, American (New), Bars", "whether_Food": 1, "label": 8}, {"name": "Rick's Rollin Smoke BBQ & Tavern", "address": "725 Las Vegas Blvd S, Ste 110", "city": "Las Vegas", "state": "NV", "latitude": 36.161205, "longitude": -115.145457, "stars": 4.0, "categories": "Sandwiches, Barbeque, Bars, Nightlife, Beer Bar, Restaurants", "whether_Food": 1, "label": 8}, {"name": "Itsy Bitsy", "address": "150 Las Vegas Blvd N, Ste 100", "city": "Las Vegas", "state": "NV", "latitude": 36.1700878, "longitude": -115.1396153, "stars": 4.0, "categories": "Nightlife, Cocktail Bars, Ramen, Sushi Bars, Asian Fusion, Bars, Japanese, Restaurants", "whether_Food": 1, "label": 8}, {"name": "Resnicks Grocery", "address": "Soho Lofts, 900 S Las Vegas Blvd, Ste 120", "city": "Las Vegas", "state": "NV", "latitude": 36.159951, "longitude": -115.147464, "stars": 4.0, "categories": "Food, Grocery", "whether_Food": 1, "label": 8}, {"name": "WILD", "address": "150 N Las Vegas Blvd, Ste 120", "city": "Las Vegas", "state": "NV", "latitude": 36.1700878, "longitude": -115.1396153, "stars": 4.0, "categories": "Cocktail Bars, Bars, Pizza, American (New), Food, Juice Bars & Smoothies, Restaurants, Nightlife", "whether_Food": 1, "label": 8}, {"name": "D E Thai Kitchen", "address": "1108 S 3rd St", "city": "Las Vegas", "state": "NV", "latitude": 36.1584415, "longitude": -115.1512002, "stars": 5.0, "categories": "Restaurants, Vegan, Seafood, Thai, Noodles, Soup", "whether_Food": 1, "label": 8}, {"name": "The Spread Sports Book & Deli", "address": "The Downtown Grand, 206 N 3rd St", "city": "Las Vegas", "state": "NV", "latitude": 36.1717189, "longitude": -115.1415053, "stars": 4.0, "categories": "Delis, Casinos, Restaurants, Arts & Entertainment", "whether_Food": 1, "label": 8}, {"name": "Downtown 3rd Farmers Market", "address": "300 N Casino Center Blvd", "city": "Las Vegas", "state": "NV", "latitude": 36.1737565208, "longitude": -115.141665384, "stars": 4.0, "categories": "Farmers Market, Food", "whether_Food": 1, "label": 8}, {"name": "Grotto Ristorante", "address": "129 E Fremont St", "city": "Las Vegas", "state": "NV", "latitude": 36.170349, "longitude": -115.144946, "stars": 4.0, "categories": "Beer, Wine & Spirits, Nightlife, Bars, Pizza, Italian, Restaurants, American (Traditional), Food", "whether_Food": 1, "label": 8}, {"name": "Therapy", "address": "518 E Fremont St", "city": "Las Vegas", "state": "NV", "latitude": 36.1690657918, "longitude": -115.139841502, "stars": 4.0, "categories": "Gastropubs, American (Traditional), American (New), Restaurants, Bars, Beer, Wine & Spirits, Nightlife, Food, Burgers, Tapas/Small Plates", "whether_Food": 1, "label": 8}, {"name": "Bomb Tacos", "address": "616 E Carson Ave, Ste 140", "city": "Las Vegas", "state": "NV", "latitude": 36.1674011, "longitude": -115.1394534, "stars": 4.5, "categories": "Tacos, Mexican, Restaurants", "whether_Food": 1, "label": 8}, {"name": "Southern Kitchen", "address": "", "city": "Las Vegas", "state": "NV", "latitude": 36.1699412, "longitude": -115.1398296, "stars": 5.0, "categories": "Sandwiches, Southern, Event Planning & Services, Food, Food Trucks, Caterers, Restaurants", "whether_Food": 1, "label": 8}, {"name": "Zydeco Po-Boys", "address": "616 E Carson Ave, Ste 140", "city": "Las Vegas", "state": "NV", "latitude": 36.1676174882, "longitude": -115.140137469, "stars": 4.5, "categories": "Sandwiches, Restaurants, Cajun/Creole, Vegan, Soul Food", "whether_Food": 1, "label": 8}, {"name": "Mundo Restaurant", "address": "495 S Grand Central Pkwy, Bldg A-116", "city": "Las Vegas", "state": "NV", "latitude": 36.1678342, "longitude": -115.156188, "stars": 4.0, "categories": "Spanish, Latin American, Mexican, Restaurants", "whether_Food": 1, "label": 8}, {"name": "Las Vegas Kettle Corn & Special Events", "address": "707 E Fremont, Ste 1280", "city": "Las Vegas", "state": "NV", "latitude": 36.167551365, "longitude": -115.138451529, "stars": 4.0, "categories": "Specialty Food, Food", "whether_Food": 1, "label": 8}, {"name": "Good Boys Bakery", "address": "320 E Charleston Blvd, Ste 104", "city": "Las Vegas", "state": "NV", "latitude": 36.158565, "longitude": -115.150291, "stars": 5.0, "categories": "Food, Pets, Bakeries", "whether_Food": 1, "label": 8}, {"name": "Salvadoreno Restaurant", "address": "720 N Main St", "city": "Las Vegas", "state": "NV", "latitude": 36.179507, "longitude": -115.141043, "stars": 4.0, "categories": "Breakfast & Brunch, Soup, Latin American, Restaurants", "whether_Food": 1, "label": 8}, {"name": "Downtown Container Park", "address": "707 Fremont St", "city": "Las Vegas", "state": "NV", "latitude": 36.1677166, "longitude": -115.1383532, "stars": 4.0, "categories": "Arts & Entertainment, Active Life, Food, Restaurants, Amusement Parks, Shopping, Shopping Centers", "whether_Food": 1, "label": 8}, {"name": "Beck N Call Mobile Concierge", "address": "", "city": "Las Vegas", "state": "NV", "latitude": 36.175, "longitude": -115.136389, "stars": 4.0, "categories": "Couriers & Delivery Services, Local Services", "whether_Food": 1, "label": 8}, {"name": "Ja-Makin-Me-Laugh", "address": "the D Casino Hotel, 301 Fremont St", "city": "Las Vegas", "state": "NV", "latitude": 36.1693903, "longitude": -115.1430844, "stars": 4.5, "categories": "Comedy Clubs, Performing Arts, Nightlife, Arts & Entertainment, Cabaret", "whether_Food": 1, "label": 8}, {"name": "Bunkhouse Saloon", "address": "124 S 11th St", "city": "Las Vegas", "state": "NV", "latitude": 36.1656819, "longitude": -115.1345122, "stars": 4.0, "categories": "Dive Bars, Arts & Entertainment, Music Venues, Nightlife, Bars", "whether_Food": 1, "label": 8}, {"name": "Simpo Sandwich", "address": "300 E Charleston Blvd, Ste 101", "city": "Las Vegas", "state": "NV", "latitude": 36.158472, "longitude": -115.150589, "stars": 4.0, "categories": "Restaurants, Sandwiches", "whether_Food": 1, "label": 8}, {"name": "Golden Nugget Pool", "address": "129 Fremont St", "city": "Las Vegas", "state": "NV", "latitude": 36.169812914, "longitude": -115.145529711, "stars": 4.0, "categories": "Cocktail Bars, Swimming Pools, Nightlife, Bars, Aquariums, Active Life", "whether_Food": 1, "label": 8}, {"name": "MTO Caf\u00e9", "address": "500 S Main St", "city": "Las Vegas", "state": "NV", "latitude": 36.1669491, "longitude": -115.1496248, "stars": 4.5, "categories": "Breakfast & Brunch, Cafes, Food, Restaurants, Comfort Food", "whether_Food": 1, "label": 8}, {"name": "Gold Spike", "address": "217 Las Vegas Blvd N", "city": "Las Vegas", "state": "NV", "latitude": 36.1713078, "longitude": -115.1402675, "stars": 4.0, "categories": "Dance Clubs, Bars, Nightlife, Lounges, Cafes, Restaurants", "whether_Food": 1, "label": 8}, {"name": "Virgin V Cheese", "address": "611 Fremont St", "city": "Las Vegas", "state": "NV", "latitude": 36.1682699, "longitude": -115.1391277, "stars": 4.5, "categories": "Restaurants, Farmers Market, Food, Vegan, Specialty Food, Cheese Shops, Organic Stores", "whether_Food": 1, "label": 8}, {"name": "Uncle Joe's Pizza", "address": "505 Fremont St", "city": "Las Vegas", "state": "NV", "latitude": 36.1691679, "longitude": -115.1405453, "stars": 4.0, "categories": "Pizza, Restaurants", "whether_Food": 1, "label": 8}, {"name": "Caynen The Barber", "address": "1112 E Fremont", "city": "Las Vegas", "state": "NV", "latitude": 36.1659627, "longitude": -115.1334394, "stars": 5.0, "categories": "Beauty & Spas, Barbers", "whether_Food": 1, "label": 8}, {"name": "Kabob Korner", "address": "507 E Fremont St", "city": "Las Vegas", "state": "NV", "latitude": 36.168876, "longitude": -115.1403955, "stars": 4.0, "categories": "Indian, Pakistani, Restaurants, Greek, Mediterranean, Halal", "whether_Food": 1, "label": 8}, {"name": "Family Food Mart", "address": "1102 E Fremont", "city": "Las Vegas", "state": "NV", "latitude": 36.1661153, "longitude": -115.1337732, "stars": 4.0, "categories": "Grocery, Food", "whether_Food": 1, "label": 8}, {"name": "21 Greens", "address": "814 S 3rd St", "city": "Las Vegas", "state": "NV", "latitude": 36.1619495658, "longitude": -115.149070404, "stars": 5.0, "categories": "Bars, Mini Golf, Golf, Active Life, Sporting Goods, Golf Lessons, Shopping, Nightlife, Golf Equipment, Fitness & Instruction, Pubs", "whether_Food": 1, "label": 8}, {"name": "Tacos Huevos", "address": "107 E Charleston Blvd, Ste 150", "city": "Las Vegas", "state": "NV", "latitude": 36.1591487, "longitude": -115.152673, "stars": 4.5, "categories": "Soup, Restaurants, Tacos, Desserts, Food, Mexican, Breakfast & Brunch", "whether_Food": 1, "label": 8}, {"name": "Muffcakes Bakery", "address": "", "city": "Las Vegas", "state": "NV", "latitude": 36.175, "longitude": -115.136389, "stars": 4.0, "categories": "Bakeries, Food, Cupcakes, Desserts", "whether_Food": 1, "label": 8}, {"name": "The Griffin", "address": "511 Fremont St", "city": "Las Vegas", "state": "NV", "latitude": 36.1688156, "longitude": -115.1403285, "stars": 4.0, "categories": "Lounges, Nightlife, Bars", "whether_Food": 1, "label": 8}, {"name": "ISLA Mexican Kitchen & Tequila Bar", "address": "3300 Las Vegas Blvd S", "city": "Las Vegas", "state": "NV", "latitude": 36.175, "longitude": -115.136389, "stars": 4.0, "categories": "Restaurants, Mexican, Bars, Nightlife", "whether_Food": 1, "label": 8}, {"name": "San Francisco Shrimp Bar and Deli", "address": "Golden Gate Hotel and Casino, 1 Fremont St", "city": "Las Vegas", "state": "NV", "latitude": 36.1710451, "longitude": -115.1465531, "stars": 4.0, "categories": "Food, Restaurants, Seafood", "whether_Food": 1, "label": 8}, {"name": "Vegas Veg Fest", "address": "Clark County Amphitheater", "city": "Las Vegas", "state": "NV", "latitude": 36.1660823087, "longitude": -115.153225125, "stars": 5.0, "categories": "Arts & Entertainment, Restaurants, Vegan, Vegetarian, Festivals", "whether_Food": 1, "label": 8}, {"name": "Sweet Spot Candy Shop", "address": "707 Fremont St", "city": "Las Vegas", "state": "NV", "latitude": 36.167526, "longitude": -115.138435, "stars": 4.0, "categories": "Shopping, Food, Candy Stores, Specialty Food", "whether_Food": 1, "label": 8}, {"name": "Bronze Cafe at The Center", "address": "401 S Maryland Pkwy", "city": "Las Vegas", "state": "NV", "latitude": 36.1619276, "longitude": -115.1346287, "stars": 4.5, "categories": "Restaurants, Cafes, Food, Salad, Coffee & Tea, Vegetarian, Sandwiches, Vegan", "whether_Food": 1, "label": 8}, {"name": "Greek American Grille", "address": "4860 W Flamingo Rd", "city": "Las Vegas", "state": "NV", "latitude": 36.175, "longitude": -115.136389, "stars": 4.0, "categories": "Restaurants, Mediterranean, Greek", "whether_Food": 1, "label": 8}, {"name": "Cafelatte", "address": "1 S Main St", "city": "Las Vegas", "state": "NV", "latitude": 36.1716577, "longitude": -115.1463616, "stars": 4.0, "categories": "Coffee & Tea, Food", "whether_Food": 1, "label": 8}, {"name": "The Underground - The Mob Museum", "address": "300 Stewart Ave", "city": "Las Vegas", "state": "NV", "latitude": 36.1728228, "longitude": -115.1412524, "stars": 4.5, "categories": "Speakeasies, Cocktail Bars, Bars, Nightlife", "whether_Food": 1, "label": 8}, {"name": "Subway", "address": "600 Fremont St", "city": "Las Vegas", "state": "NV", "latitude": 36.1690762, "longitude": -115.1389825, "stars": 4.0, "categories": "Sandwiches, Fast Food, Restaurants", "whether_Food": 1, "label": 8}, {"name": "Joe Vicari's Andiamo Italian Steakhouse", "address": "301 Fremont St", "city": "Las Vegas", "state": "NV", "latitude": 36.16944, "longitude": -115.142905, "stars": 4.5, "categories": "Restaurants, Steakhouses, Italian", "whether_Food": 1, "label": 8}, {"name": "Potato Valley Cafe", "address": "801 S Las Vegas Blvd, Ste 110", "city": "Las Vegas", "state": "NV", "latitude": 36.160555, "longitude": -115.145874, "stars": 4.5, "categories": "Vegetarian, Delis, Restaurants", "whether_Food": 1, "label": 8}, {"name": "Boulevard Barber Shop", "address": "906 S 6th St", "city": "Las Vegas", "state": "NV", "latitude": 36.1592271, "longitude": -115.1461395, "stars": 4.0, "categories": "Beauty & Spas, Barbers, Shopping", "whether_Food": 1, "label": 8}, {"name": "Junes Legal Services", "address": "630 S 10th S, Ste B", "city": "Las Vegas", "state": "NV", "latitude": 36.160035, "longitude": -115.1396917, "stars": 4.0, "categories": "Professional Services, Lawyers, Local Services, Couriers & Delivery Services, Legal Services, Shredding Services, Process Servers, Notaries", "whether_Food": 1, "label": 8}, {"name": "The Lair Vapors", "address": "220 E Charleston Blvd", "city": "Las Vegas", "state": "NV", "latitude": 36.1586625, "longitude": -115.1511899, "stars": 4.0, "categories": "Shopping, Arts & Entertainment, Social Clubs, Bars, Vape Shops, Nightlife, Local Flavor, Tobacco Shops, Hookah Bars", "whether_Food": 1, "label": 8}, {"name": "Las Vegas Mela - Indian Food and Cultural Festival", "address": "500 S Grand Central Pkwy", "city": "Las Vegas", "state": "NV", "latitude": 36.1639607, "longitude": -115.1545244, "stars": 4.0, "categories": "Vegetarian, Indian, Restaurants, Arts & Entertainment, Cultural Center, Festivals", "whether_Food": 1, "label": 8}, {"name": "Chicago Brewing Company", "address": "202 Fremont St", "city": "Las Vegas", "state": "NV", "latitude": 36.1701440483, "longitude": -115.143369035, "stars": 4.0, "categories": "Food, Restaurants, Breweries, Pizza", "whether_Food": 1, "label": 8}, {"name": "Two Bald Brothers", "address": "616 E Carson Ave, Ste 140", "city": "Las Vegas", "state": "NV", "latitude": 36.1674011, "longitude": -115.1394534, "stars": 4.0, "categories": "Mediterranean, Restaurants", "whether_Food": 1, "label": 8}, {"name": "Ethel M Chocolates", "address": "12 E Ogden Ave", "city": "Las Vegas", "state": "NV", "latitude": 36.1730572, "longitude": -115.1450046, "stars": 4.0, "categories": "Chocolatiers & Shops, Specialty Food, Food", "whether_Food": 1, "label": 8}, {"name": "Al-Hayat Hookah Lounge", "address": "1414 E Charleston Blvd", "city": "Las Vegas", "state": "NV", "latitude": 36.1585825, "longitude": -115.1343686, "stars": 4.0, "categories": "Bars, Nightlife, Lounges, Hookah Bars, Lebanese, Middle Eastern, Restaurants, Egyptian", "whether_Food": 1, "label": 8}, {"name": "Sun's Beef Jerky", "address": "1108 S 3rd St", "city": "Las Vegas", "state": "NV", "latitude": 36.15851, "longitude": -115.150999, "stars": 5.0, "categories": "Food, Meat Shops, Specialty Food", "whether_Food": 1, "label": 8}, {"name": "Whiskey Licker Bar", "address": "128 Fremont St", "city": "Las Vegas", "state": "NV", "latitude": 36.1713276785, "longitude": -115.144672154, "stars": 4.0, "categories": "Nightlife, Bars", "whether_Food": 1, "label": 8}, {"name": "The Kitchen at Atomic", "address": "927 Fremont St", "city": "Las Vegas", "state": "NV", "latitude": 36.1665341006, "longitude": -115.135213249, "stars": 4.5, "categories": "Bars, Nightlife, Cocktail Bars, American (New), Sandwiches, Restaurants", "whether_Food": 1, "label": 8}, {"name": "Cheffini's Hot Dogs", "address": "707 Fremont St, Ste 1050", "city": "Las Vegas", "state": "NV", "latitude": 36.1677987235, "longitude": -115.13820323, "stars": 4.0, "categories": "Restaurants, Beer, Wine & Spirits, Food, Hot Dogs, Coffee & Tea", "whether_Food": 1, "label": 8}, {"name": "Gigi's Cupcakes", "address": "Plaza Hotel & Casino, 1 Main St", "city": "Las Vegas", "state": "NV", "latitude": 36.1716577, "longitude": -115.1463616, "stars": 4.0, "categories": "Food, Desserts", "whether_Food": 1, "label": 8}, {"name": "bin 702", "address": "707 E Fremont St", "city": "Las Vegas", "state": "NV", "latitude": 36.167575, "longitude": -115.138596, "stars": 4.0, "categories": "Food, Salad, Bars, Sandwiches, Nightlife, Restaurants, Wine Bars", "whether_Food": 1, "label": 8}, {"name": "Truk-N-Yaki", "address": "", "city": "Las Vegas", "state": "NV", "latitude": 36.175, "longitude": -115.136389, "stars": 4.5, "categories": "Restaurants, Food, Japanese, Food Trucks", "whether_Food": 1, "label": 8}, {"name": "Don't Tell Mama", "address": "517 Fremont St, Ste A", "city": "Las Vegas", "state": "NV", "latitude": 36.1687357, "longitude": -115.1400728, "stars": 4.0, "categories": "Nightlife, Bars, Lounges, Piano Bars", "whether_Food": 1, "label": 8}, {"name": "Don B's Steakhouse", "address": "Fitzgerald's Casino, 301 Fremont St", "city": "Las Vegas", "state": "NV", "latitude": 36.1693903, "longitude": -115.1430844, "stars": 4.0, "categories": "Steakhouses, Restaurants", "whether_Food": 1, "label": 8}, {"name": "chow.", "address": "1020 Fremont St, Ste 120", "city": "Las Vegas", "state": "NV", "latitude": 36.166666, "longitude": -115.1344046, "stars": 4.0, "categories": "Soul Food, Chinese, Pop-Up Restaurants, Event Planning & Services, Venues & Event Spaces, Restaurants, Southern, Local Flavor, Caterers, Comfort Food", "whether_Food": 1, "label": 8}, {"name": "Ice Bar", "address": "53-99 Carson Ave", "city": "Las Vegas", "state": "NV", "latitude": 36.1699709, "longitude": -115.1459968, "stars": 4.5, "categories": "Nightlife, Bars", "whether_Food": 1, "label": 8}, {"name": "Noble Romans Pizza", "address": "202 Fremont St", "city": "Las Vegas", "state": "NV", "latitude": 36.1698382, "longitude": -115.1433842, "stars": 4.0, "categories": "Pizza, Restaurants", "whether_Food": 1, "label": 8}, {"name": "Citrus at the Downtown Grand Pool Deck", "address": "206 N 3rd St", "city": "Las Vegas", "state": "NV", "latitude": 36.1714321959, "longitude": -115.14183501, "stars": 4.0, "categories": "Restaurants, American (Traditional), Bars, Event Planning & Services, Swimming Pools, Venues & Event Spaces, Active Life, Nightlife", "whether_Food": 1, "label": 8}, {"name": "Pullman Grille", "address": "200 N Main St", "city": "Las Vegas", "state": "NV", "latitude": 36.1729288, "longitude": -115.1456193, "stars": 4.0, "categories": "Restaurants, Steakhouses", "whether_Food": 1, "label": 8}, {"name": "Rita's", "address": "725 S Las Vegas Blvd, Ste 120", "city": "Las Vegas", "state": "NV", "latitude": 36.1611641704, "longitude": -115.145670287, "stars": 4.5, "categories": "Shaved Ice, Food, Desserts, Ice Cream & Frozen Yogurt, Specialty Food", "whether_Food": 1, "label": 8}, {"name": "Naked City Pizza", "address": "600 E Fremont St", "city": "Las Vegas", "state": "NV", "latitude": 36.1690762, "longitude": -115.1389825, "stars": 4.0, "categories": "Pizza, Sandwiches, Restaurants, Italian", "whether_Food": 1, "label": 8}, {"name": "Vegas Pub Crawler", "address": "201 N 3rd St", "city": "Las Vegas", "state": "NV", "latitude": 36.1718694, "longitude": -115.1421457, "stars": 4.5, "categories": "Nightlife, Hotels & Travel, Bar Crawl, Tours, Bars, Pubs", "whether_Food": 1, "label": 8}, {"name": "Mariscos Playa Escondida", "address": "1203 E Charleston Blvd, Ste 140", "city": "Las Vegas", "state": "NV", "latitude": 36.159655901, "longitude": -115.136348027, "stars": 4.5, "categories": "Food, Specialty Food, Mexican, Seafood, Restaurants, Ethnic Food", "whether_Food": 1, "label": 8}, {"name": "Rock'N'oodles", "address": "1108 S 3rd St", "city": "Las Vegas", "state": "NV", "latitude": 36.1584369, "longitude": -115.1512011, "stars": 4.5, "categories": "Italian, American (New), Noodles, Restaurants, Salad, Food, Local Flavor", "whether_Food": 1, "label": 8}, {"name": "Chocolate Swan", "address": "3930 Las Vegas Blvd S., Ste 121B, Mandalay Bay Hotel", "city": "Las Vegas", "state": "NV", "latitude": 36.175, "longitude": -115.136389, "stars": 4.5, "categories": "Chocolatiers & Shops, Specialty Food, Food", "whether_Food": 1, "label": 8}, {"name": "Vue Bar", "address": "301 Fremont St", "city": "Las Vegas", "state": "NV", "latitude": 36.1693903, "longitude": -115.1430844, "stars": 4.0, "categories": "Bars, Nightlife", "whether_Food": 1, "label": 8}, {"name": "Thirsty 3rd Thursday Downtown Pub Crawl", "address": "425 Fremont St", "city": "Las Vegas", "state": "NV", "latitude": 36.1689181, "longitude": -115.1415924, "stars": 4.5, "categories": "Bar Crawl, Nightlife, Arts & Entertainment, Music Venues, Bars", "whether_Food": 1, "label": 8}, {"name": "Simply Pure by Chef Stacey Dougan", "address": "707 Fremont St, Ste 1310", "city": "Las Vegas", "state": "NV", "latitude": 36.1679035, "longitude": -115.138142, "stars": 4.5, "categories": "Restaurants, Vegetarian, Vegan", "whether_Food": 1, "label": 8}, {"name": "Holo Holo", "address": "12 East Ogden Ave", "city": "Las Vegas", "state": "NV", "latitude": 36.1729495, "longitude": -115.1447421, "stars": 4.5, "categories": "Restaurants, Hawaiian, Nightlife, Bars", "whether_Food": 1, "label": 8}, {"name": "Sultan's Grill", "address": "321 S Casino Center Blvd", "city": "Las Vegas", "state": "NV", "latitude": 36.1675528, "longitude": -115.1457096, "stars": 4.0, "categories": "Restaurants, Mediterranean", "whether_Food": 1, "label": 8}, {"name": "Cornish Pasty", "address": "10 E Charleston Blvd", "city": "Las Vegas", "state": "NV", "latitude": 36.158705, "longitude": -115.15293, "stars": 4.5, "categories": "Pubs, Nightlife, Restaurants, British, Food, Bars, Specialty Food", "whether_Food": 1, "label": 8}, {"name": "Atomic Liquors", "address": "917 Fremont St", "city": "Las Vegas", "state": "NV", "latitude": 36.1667913, "longitude": -115.1355082, "stars": 4.5, "categories": "Bars, Pubs, Beer Bar, Dive Bars, Wine Bars, Nightlife, Cocktail Bars", "whether_Food": 1, "label": 8}, {"name": "Flock & Fowl", "address": "150 N Las Vegas Blvd, Ste 100", "city": "Las Vegas", "state": "NV", "latitude": 36.1698784, "longitude": -115.1395887, "stars": 4.0, "categories": "Restaurants, Nightlife, American (New), Asian Fusion, Singaporean, Chicken Shop, Bars", "whether_Food": 1, "label": 8}, {"name": "Mingo Kitchen & Lounge", "address": "1017 S 1st St, Ste 180", "city": "Las Vegas", "state": "NV", "latitude": 36.1598867, "longitude": -115.1520224, "stars": 4.0, "categories": "Lounges, Comfort Food, Restaurants, Bars, American (New), Asian Fusion, Mexican, Nightlife", "whether_Food": 1, "label": 8}, {"name": "Coffee Stand At The D", "address": "301 Fremont St", "city": "Las Vegas", "state": "NV", "latitude": 36.1694784, "longitude": -115.1428737, "stars": 5.0, "categories": "Coffee & Tea, Food", "whether_Food": 1, "label": 8}, {"name": "The Goodwich", "address": "900 S Las Vegas Blvd, Ste 120", "city": "Las Vegas", "state": "NV", "latitude": 36.1599382942, "longitude": -115.147452718, "stars": 4.5, "categories": "Street Vendors, Food, Sandwiches, Restaurants, Breakfast & Brunch", "whether_Food": 1, "label": 8}, {"name": "Cheffinis Hot Dogs- THE CART", "address": "520 Fremont St", "city": "Las Vegas", "state": "NV", "latitude": 36.169116, "longitude": -115.139599, "stars": 4.0, "categories": "Hot Dogs, Restaurants", "whether_Food": 1, "label": 8}, {"name": "Hugo's Cellar", "address": "202 Fremont St", "city": "Las Vegas", "state": "NV", "latitude": 36.169849, "longitude": -115.143368, "stars": 4.5, "categories": "Seafood, Steakhouses, American (Traditional), American (New), Restaurants", "whether_Food": 1, "label": 8}, {"name": "Downtown Vintage Barbershop", "address": "1112 E Fremont St", "city": "Las Vegas", "state": "NV", "latitude": 36.1659936734, "longitude": -115.133417287, "stars": 4.5, "categories": "Beauty & Spas, Men's Hair Salons, Hair Salons, Barbers", "whether_Food": 1, "label": 8}, {"name": "Corduroy", "address": "515 Fremont St", "city": "Las Vegas", "state": "NV", "latitude": 36.168728, "longitude": -115.140222, "stars": 4.5, "categories": "Bars, Restaurants, Nightlife, Arts & Entertainment, Music Venues, Breakfast & Brunch", "whether_Food": 1, "label": 8}, {"name": "Premier Club Tours", "address": "100 S Las Vegas Blvd", "city": "Las Vegas", "state": "NV", "latitude": 36.1690936, "longitude": -115.1412277, "stars": 4.0, "categories": "Adult Entertainment, Event Planning & Services, Dance Clubs, Cocktail Bars, Party Bus Rentals, Party & Event Planning, Tours, Bars, Nightlife, Hotels & Travel", "whether_Food": 1, "label": 8}, {"name": "Park on Fremont", "address": "506 Fremont St", "city": "Las Vegas", "state": "NV", "latitude": 36.169326, "longitude": -115.140097, "stars": 4.0, "categories": "Gastropubs, American (New), Lounges, Nightlife, Bars, Restaurants, Breakfast & Brunch", "whether_Food": 1, "label": 8}, {"name": "Las Vegas Jerkys", "address": "1 S Main St", "city": "Las Vegas", "state": "NV", "latitude": 36.1721756, "longitude": -115.1468294, "stars": 4.5, "categories": "Food, Candy Stores, Specialty Food, Bagels, Meat Shops", "whether_Food": 1, "label": 8}, {"name": "Pizza Lotto", "address": "600 E Fremont St", "city": "Las Vegas", "state": "NV", "latitude": 36.1689134331, "longitude": -115.13848629, "stars": 4.0, "categories": "Italian, Pizza, Restaurants, Chicken Wings", "whether_Food": 1, "label": 8}, {"name": "Good Pie", "address": "725 S Las Vegas Blvd, Ste 140", "city": "Las Vegas", "state": "NV", "latitude": 36.161205, "longitude": -115.145457, "stars": 4.5, "categories": "Gluten-Free, Pizza, Restaurants, Vegan", "whether_Food": 1, "label": 8}, {"name": "AmeriBrunch Cafe", "address": "316 E Bridger Ave, Ste 102", "city": "Las Vegas", "state": "NV", "latitude": 36.167704, "longitude": -115.1435534, "stars": 4.5, "categories": "Breakfast & Brunch, Food, Restaurants, American (Traditional), Coffee & Tea, American (New), Cafes", "whether_Food": 1, "label": 8}, {"name": "Dougie J's Cafe", "address": "603 S Las Vegas Blvd", "city": "Las Vegas", "state": "NV", "latitude": 36.1632132, "longitude": -115.1445007, "stars": 4.5, "categories": "Cafes, Sandwiches, Burgers, Breakfast & Brunch, Restaurants", "whether_Food": 1, "label": 8}, {"name": "Downtown Terrace", "address": "707 Fremont St", "city": "Las Vegas", "state": "NV", "latitude": 36.1673570366, "longitude": -115.13881669, "stars": 4.0, "categories": "Lounges, American (New), Nightlife, Restaurants, Burgers, American (Traditional), Bars", "whether_Food": 1, "label": 8}, {"name": "Smoke's Poutinerie", "address": "725 Las Vegas Blvd S", "city": "Las Vegas", "state": "NV", "latitude": 36.161205, "longitude": -115.145457, "stars": 4.0, "categories": "Poutineries, Restaurants", "whether_Food": 1, "label": 8}, {"name": "Jared's Old Fashioned", "address": "725 S Las Vegas Blvd, Ste 150", "city": "Las Vegas", "state": "NV", "latitude": 36.161205, "longitude": -115.145457, "stars": 4.5, "categories": "Restaurants, Burgers, American (Traditional), American (New), Hot Dogs", "whether_Food": 1, "label": 8}, {"name": "Vanguard Lounge", "address": "516 Fremont St", "city": "Las Vegas", "state": "NV", "latitude": 36.169168, "longitude": -115.139782, "stars": 4.0, "categories": "Nightlife, Bars, Lounges", "whether_Food": 1, "label": 8}, {"name": "Moxie Java", "address": "321 Casino Center Blvd, Ste 120", "city": "Las Vegas", "state": "NV", "latitude": 36.1672003399, "longitude": -115.146059961, "stars": 4.0, "categories": "Food, Coffee & Tea", "whether_Food": 1, "label": 8}, {"name": "JoJo's Jerky", "address": "707 Fremont St, Ste 1080", "city": "Las Vegas", "state": "NV", "latitude": 36.167526, "longitude": -115.138435, "stars": 4.5, "categories": "Specialty Food, Food, Farmers Market", "whether_Food": 1, "label": 8}, {"name": "Ninja Karaoke", "address": "1009 S Main St", "city": "Las Vegas", "state": "NV", "latitude": 36.1606481, "longitude": -115.1526666, "stars": 4.5, "categories": "Karaoke, Bars, Music Venues, Nightlife, Pubs, Arts & Entertainment, Lounges", "whether_Food": 1, "label": 8}, {"name": "Espression Cafe", "address": "321 S Casino Ctr Blvd, Ste 120", "city": "Las Vegas", "state": "NV", "latitude": 36.1673841, "longitude": -115.1458384, "stars": 4.0, "categories": "Gelato, Coffee & Tea, Internet Cafes, Breakfast & Brunch, American (Traditional), Food, Fast Food, Restaurants, American (New), Cafes, Burgers", "whether_Food": 1, "label": 8}, {"name": "La Bayou Casino", "address": "15 Fremont St", "city": "Las Vegas", "state": "NV", "latitude": 36.17115, "longitude": -115.145849, "stars": 4.0, "categories": "Nightlife, American (New), Cocktail Bars, Restaurants, Casinos, Arts & Entertainment, Bars", "whether_Food": 1, "label": 8}, {"name": "retroscena", "address": "508 Fremont St", "city": "Las Vegas", "state": "NV", "latitude": 36.1692398, "longitude": -115.1400789, "stars": 5.0, "categories": "Nightlife, Cocktail Bars, Bars", "whether_Food": 1, "label": 8}, {"name": "Relax Pool", "address": "4455 Paradise Rd", "city": "Las Vegas", "state": "NV", "latitude": 36.1750327609, "longitude": -115.136386156, "stars": 4.0, "categories": "Bars, Lounges, Nightlife", "whether_Food": 1, "label": 8}, {"name": "Icehouse Lounge", "address": "650 S Main St", "city": "Las Vegas", "state": "NV", "latitude": 36.1650045, "longitude": -115.1509219, "stars": 4.0, "categories": "Lounges, Nightlife, Bars", "whether_Food": 1, "label": 8}, {"name": "Oak and Ivy", "address": "707 Fremont St", "city": "Las Vegas", "state": "NV", "latitude": 36.1679027, "longitude": -115.1380764, "stars": 4.5, "categories": "Cocktail Bars, Food, Nightlife, Beer, Wine & Spirits, Bars", "whether_Food": 1, "label": 8}, {"name": "Cadillac Mexican Kitchen & Tequila Bar", "address": "129 E Fremont St", "city": "Las Vegas", "state": "NV", "latitude": 36.1702509335, "longitude": -115.144715756, "stars": 4.0, "categories": "Bars, Restaurants, Sports Bars, Steakhouses, Seafood, Nightlife, American (Traditional), Mexican", "whether_Food": 1, "label": 8}, {"name": "ChillSpot by SasaSweets", "address": "707 E Fremont St, Ste 1300", "city": "Las Vegas", "state": "NV", "latitude": 36.1675261791, "longitude": -115.138435028, "stars": 4.5, "categories": "Desserts, Food, Shaved Ice, Ice Cream & Frozen Yogurt", "whether_Food": 1, "label": 8}, {"name": "Turmeric Flavors of India", "address": "700 E Fremont St", "city": "Las Vegas", "state": "NV", "latitude": 36.1683737079, "longitude": -115.13811918, "stars": 4.5, "categories": "Restaurants, Bars, Nightlife, Indian", "whether_Food": 1, "label": 8}, {"name": "Classic Jewel", "address": "353 E Bonneville Ave, Ste 111", "city": "Las Vegas", "state": "NV", "latitude": 36.1639701, "longitude": -115.1463479, "stars": 4.5, "categories": "Bars, Music Venues, Cocktail Bars, Nightlife, Pubs, Arts & Entertainment", "whether_Food": 1, "label": 8}, {"name": "Make It Yourself Pizza", "address": "375 Lewis Ave, Ste 375", "city": "Las Vegas", "state": "NV", "latitude": 36.1662159496, "longitude": -115.144419604, "stars": 5.0, "categories": "Pizza, Restaurants, Gluten-Free", "whether_Food": 1, "label": 8}, {"name": "Gamblers Cafe", "address": "800 S Main St", "city": "Las Vegas", "state": "NV", "latitude": 36.1635971, "longitude": -115.151562, "stars": 4.0, "categories": "Sandwiches, Bagels, Cafes, Food, Restaurants", "whether_Food": 1, "label": 8}, {"name": "King's Sausage", "address": "917 Fremont St", "city": "Las Vegas", "state": "NV", "latitude": 36.166757, "longitude": -115.135551, "stars": 5.0, "categories": "Nightlife, Ethnic Food, Specialty Food, Bars, Restaurants, Food, Street Vendors, Hot Dogs", "whether_Food": 1, "label": 8}, {"name": "Tacos Estephanie", "address": "1021 E Charleston Blvd", "city": "Las Vegas", "state": "NV", "latitude": 36.159121, "longitude": -115.138667, "stars": 4.0, "categories": "Food, Restaurants, Food Trucks, Street Vendors, Mexican", "whether_Food": 1, "label": 8}, {"name": "Top of Binion's Steakhouse", "address": "128 Fremont St", "city": "Las Vegas", "state": "NV", "latitude": 36.171235, "longitude": -115.144061, "stars": 4.0, "categories": "Nightlife, Beer, Wine & Spirits, Bars, Seafood, Restaurants, Steakhouses, Wine Bars, Food", "whether_Food": 1, "label": 8}, {"name": "Lei Day Aloha Festival", "address": "12 E Ogden Ave", "city": "Las Vegas", "state": "NV", "latitude": 36.1729699, "longitude": -115.1447095, "stars": 4.5, "categories": "Food, Arts & Entertainment, Festivals, Specialty Food", "whether_Food": 1, "label": 8}, {"name": "Vic & Anthony's Steakhouse", "address": "129 E Fremont St", "city": "Las Vegas", "state": "NV", "latitude": 36.1702390246, "longitude": -115.144609809, "stars": 4.5, "categories": "Seafood, Steakhouses, American (Traditional), American (New), Restaurants", "whether_Food": 1, "label": 8}, {"name": "Center Stage Restaurant", "address": "1 S Main St", "city": "Las Vegas", "state": "NV", "latitude": 36.1721756, "longitude": -115.1468294, "stars": 4.5, "categories": "Steakhouses, Restaurants", "whether_Food": 1, "label": 8}, {"name": "Big Ern's BBQ", "address": "102 S 7th St", "city": "Las Vegas", "state": "NV", "latitude": 36.167841, "longitude": -115.139075, "stars": 4.0, "categories": "Restaurants, Barbeque", "whether_Food": 1, "label": 8}, {"name": "F Pigalle", "address": "508 E Fremont St", "city": "Las Vegas", "state": "NV", "latitude": 36.169109022, "longitude": -115.140062459, "stars": 4.5, "categories": "Bars, Cocktail Bars, Nightlife, Restaurants, Lounges, Fondue", "whether_Food": 1, "label": 8}, {"name": "FAO Schwarz", "address": "3500 Las Vegas Blvd South, Suite N-15", "city": "Las Vegas", "state": "NV", "latitude": 36.175, "longitude": -115.136389, "stars": 4.0, "categories": "Candy Stores, Toy Stores, Food, Specialty Food, Shopping", "whether_Food": 1, "label": 8}, {"name": "Goto Pares Atbp", "address": "1428 E Charleston Ave", "city": "Las Vegas", "state": "NV", "latitude": 36.1584733343, "longitude": -115.134285131, "stars": 4.0, "categories": "Specialty Food, Filipino, Food, American (New), Restaurants", "whether_Food": 1, "label": 8}, {"name": "The Laundry Room", "address": "525 E Fremont St", "city": "Las Vegas", "state": "NV", "latitude": 36.1690086067, "longitude": -115.139698349, "stars": 4.5, "categories": "Nightlife, Cocktail Bars, Lounges, Bars, Speakeasies", "whether_Food": 1, "label": 8}, {"name": "Carson Kitchen", "address": "124 S 6th St, Ste 100", "city": "Las Vegas", "state": "NV", "latitude": 36.1678783157, "longitude": -115.140640475, "stars": 4.5, "categories": "American (New), Restaurants, Salad, Burgers, Food, Gastropubs, Nightlife, Cocktail Bars, Desserts, Vegan, Tapas/Small Plates, Comfort Food, Bars, Seafood", "whether_Food": 1, "label": 8}, {"name": "LV Food Junky", "address": "450 Fremont St, Ste 135", "city": "Las Vegas", "state": "NV", "latitude": 36.1701761, "longitude": -115.1404649, "stars": 4.5, "categories": "Food Trucks, Caterers, Restaurants, Barbeque, Event Planning & Services, Food, Tapas Bars, American (New)", "whether_Food": 1, "label": 8}, {"name": "BOA Steakhouse", "address": "The Forum Shops At Caesars, 3500 Las Vegas Blvd S", "city": "Las Vegas", "state": "NV", "latitude": 36.175, "longitude": -115.136389, "stars": 4.0, "categories": "Steakhouses, Restaurants", "whether_Food": 1, "label": 8}, {"name": "Lappert's Ice Cream Shop", "address": "12 Ogden Ave", "city": "Las Vegas", "state": "NV", "latitude": 36.1731567812, "longitude": -115.145197072, "stars": 4.0, "categories": "Food, Ice Cream & Frozen Yogurt, Desserts", "whether_Food": 1, "label": 8}, {"name": "Krispy Kreme Doughnuts", "address": "301 Fremont St", "city": "Las Vegas", "state": "NV", "latitude": 36.169971, "longitude": -115.1427714, "stars": 4.0, "categories": "Donuts, Food", "whether_Food": 1, "label": 8}, {"name": "El Cortez Barber Shop", "address": "600 Fremont St", "city": "Las Vegas", "state": "NV", "latitude": 36.1690762, "longitude": -115.1389825, "stars": 4.5, "categories": "Barbers, Beauty & Spas", "whether_Food": 1, "label": 8}, {"name": "Inna Gadda di Pizza", "address": "725 S Las Vegas Blvd, Apt 140", "city": "Las Vegas", "state": "NV", "latitude": 36.161205, "longitude": -115.145457, "stars": 4.5, "categories": "Italian, Salad, Restaurants, Pizza", "whether_Food": 1, "label": 8}, {"name": "Redwood Bar and Grill", "address": "12 E Ogden Ave", "city": "Las Vegas", "state": "NV", "latitude": 36.173087, "longitude": -115.144799, "stars": 4.0, "categories": "Steakhouses, Restaurants", "whether_Food": 1, "label": 8}, {"name": "Sweet Spot Candy Shop", "address": "616 Las Vegas Blvd S", "city": "Las Vegas", "state": "NV", "latitude": 36.162956, "longitude": -115.145153, "stars": 5.0, "categories": "Candy Stores, Specialty Food, Food", "whether_Food": 1, "label": 8}, {"name": "The Beef Jerky Store", "address": "112 N 3rd St, Ste B", "city": "Las Vegas", "state": "NV", "latitude": 36.170582, "longitude": -115.1422946, "stars": 4.0, "categories": "Candy Stores, Specialty Food, Organic Stores, Ethnic Food, Food, Meat Shops", "whether_Food": 1, "label": 8}, {"name": "Andre's", "address": "401 S 6th Street", "city": "Las Vegas", "state": "NV", "latitude": 36.164944, "longitude": -115.141552, "stars": 4.0, "categories": "French, Restaurants", "whether_Food": 1, "label": 8}, {"name": "PublicUs", "address": "1126 Fremont St", "city": "Las Vegas", "state": "NV", "latitude": 36.1657583, "longitude": -115.1329346, "stars": 4.5, "categories": "Food, Restaurants, Cafes, Coffee & Tea, American (New)", "whether_Food": 1, "label": 8}, {"name": "Bocho Sushi", "address": "124 S 6th St", "city": "Las Vegas", "state": "NV", "latitude": 36.1679398, "longitude": -115.1404681, "stars": 4.5, "categories": "Japanese, Restaurants, Nightlife, Bars, Sushi Bars", "whether_Food": 1, "label": 8}, {"name": "Bar 46", "address": "129 E Fremont St", "city": "Las Vegas", "state": "NV", "latitude": 36.1697692871, "longitude": -115.141555786, "stars": 4.5, "categories": "Bars, Nightlife", "whether_Food": 1, "label": 8}, {"name": "Sidebar", "address": "201 N 3rd St", "city": "Las Vegas", "state": "NV", "latitude": 36.1718303, "longitude": -115.1420069, "stars": 4.0, "categories": "Bars, Nightlife, Wine Bars, Lounges", "whether_Food": 1, "label": 8}, {"name": "Downtown Cocktail Room", "address": "111 Las Vegas Blvd S", "city": "Las Vegas", "state": "NV", "latitude": 36.1688736, "longitude": -115.1406997, "stars": 4.5, "categories": "Bars, Lounges, Nightlife, Cocktail Bars", "whether_Food": 1, "label": 8}, {"name": "Grass Roots Juice Bar", "address": "124 S 6th St, Ste 160", "city": "Las Vegas", "state": "NV", "latitude": 36.167937, "longitude": -115.140467, "stars": 4.5, "categories": "Ice Cream & Frozen Yogurt, Vegetarian, Vegan, Education, Juice Bars & Smoothies, Food, Restaurants", "whether_Food": 1, "label": 8}, {"name": "Las Vegas Jerkys", "address": "Inside Las Vegas Club Hotel & Casino, 18 E Fremont St", "city": "Las Vegas", "state": "NV", "latitude": 36.172231, "longitude": -115.1455, "stars": 4.0, "categories": "Specialty Food, Food, Restaurants, Hawaiian", "whether_Food": 1, "label": 8}, {"name": "Cake World Bakery", "address": "220 N Maryland Pkwy", "city": "Las Vegas", "state": "NV", "latitude": 36.1676405, "longitude": -115.1312231, "stars": 4.5, "categories": "Bakeries, Desserts, Food", "whether_Food": 1, "label": 8}, {"name": "Du-Par's", "address": "1 Fremont St", "city": "Las Vegas", "state": "NV", "latitude": 36.171301, "longitude": -115.146052, "stars": 4.0, "categories": "Breakfast & Brunch, Food, American (Traditional), Restaurants, Bakeries", "whether_Food": 1, "label": 8}, {"name": "Pop Up Pizza", "address": "1 S Main St", "city": "Las Vegas", "state": "NV", "latitude": 36.1721756, "longitude": -115.1468294, "stars": 4.0, "categories": "Restaurants, Vegan, Pizza", "whether_Food": 1, "label": 8}, {"name": "Cafe 316", "address": "316 E Bridger, Ste 102", "city": "Las Vegas", "state": "NV", "latitude": 36.167682, "longitude": -115.143516, "stars": 4.0, "categories": "Internet Cafes, Food, Restaurants, Juice Bars & Smoothies, Cafes", "whether_Food": 1, "label": 8}, {"name": "7th & Carson", "address": "616 E Carson Ave, Ste 110", "city": "Las Vegas", "state": "NV", "latitude": 36.1674011, "longitude": -115.1394534, "stars": 4.0, "categories": "Cocktail Bars, American (New), Restaurants, Nightlife, Bars, Burgers, Breakfast & Brunch, Tapas Bars", "whether_Food": 1, "label": 8}, {"name": "Antonio's Italian Ristorante", "address": "The Rio, 3700 W Flamingo Rd", "city": "Las Vegas", "state": "NV", "latitude": 36.175, "longitude": -115.136389, "stars": 4.5, "categories": "Italian, Restaurants", "whether_Food": 1, "label": 8}, {"name": "Maharaja Hookah Cafe", "address": "506 Fremont St", "city": "Las Vegas", "state": "NV", "latitude": 36.1691311, "longitude": -115.1402448, "stars": 4.0, "categories": "Bars, Nightlife, Hookah Bars, Coffee & Tea, Food", "whether_Food": 1, "label": 8}, {"name": "Noir Bar", "address": "3900 Las Vegas Blvd S, Luxor Hotel", "city": "Las Vegas", "state": "NV", "latitude": 36.175, "longitude": -115.136389, "stars": 4.0, "categories": "Bars, Nightlife, Lounges", "whether_Food": 1, "label": 8}, {"name": "Sugar Rush Bakery", "address": "", "city": "Las Vegas", "state": "NV", "latitude": 36.175, "longitude": -115.136389, "stars": 5.0, "categories": "Food, Bakeries", "whether_Food": 1, "label": 8}, {"name": "Banger Brewing", "address": "450 Fremont St, Ste 135", "city": "Las Vegas", "state": "NV", "latitude": 36.1695348649, "longitude": -115.140921731, "stars": 4.5, "categories": "Food, Nightlife, Pubs, Bars, Breweries", "whether_Food": 1, "label": 8}, {"name": "Melteez", "address": "", "city": "Las Vegas", "state": "NV", "latitude": 36.175, "longitude": -115.136389, "stars": 4.0, "categories": "Food, Food Trucks", "whether_Food": 1, "label": 8}, {"name": "Pacific Island Taste", "address": "1428 E Charleston Blvd", "city": "Las Vegas", "state": "NV", "latitude": 36.158478, "longitude": -115.13427, "stars": 4.5, "categories": "Hawaiian, Restaurants, Comfort Food, Asian Fusion", "whether_Food": 1, "label": 8}, {"name": "Mike Morey's Sip'n'Tip", "address": "111 S Las Vegas Blvd, Ste B", "city": "Las Vegas", "state": "NV", "latitude": 36.1685717355, "longitude": -115.140765769, "stars": 5.0, "categories": "Bars, Nightlife", "whether_Food": 1, "label": 8}]